[{"externalCode":"1124","uri":"\/cinemas\/alba","name":"Alba - Sz\u00E9kesfeh\u00E9rv\u00E1r","filename":"\/static\/dam\/jcr:56afebea-818b-42c4-b841-2e0ff97d1513","latitude":47.190636,"longitude":18.405983,"address":{"address1":"Palotai \u00FAt 1.","address2":null,"address3":null,"address4":null,"city":"Sz\u00E9kesfeh\u00E9rv\u00E1r","state":null,"postalCode":"8000"}},{"externalCode":"1133","uri":"\/cinemas\/allee","name":"Allee - Budapest","filename":"\/static\/dam\/jcr:59ece327-d1c6-4556-8f43-f3f1a0b095d2","latitude":47.47485,"longitude":19.04908,"address":{"address1":"Okt\u00F3ber huszonharmadika utca 8-10.","address2":null,"address3":null,"address4":null,"city":"Budapest","state":null,"postalCode":"1117"}},{"externalCode":"1132","uri":"\/cinemas\/arena","name":"Arena - Budapest","filename":"\/static\/dam\/jcr:3296f7f9-d5af-4ed7-a933-e544a8646ec9","latitude":47.498222,"longitude":19.09212,"address":{"address1":"Kerepesi \u00FAt 9.","address2":null,"address3":null,"address4":null,"city":"Budapest","state":null,"postalCode":"1087"}},{"externalCode":"1131","uri":"\/cinemas\/balaton","name":"Balaton - Veszpr\u00E9m","filename":"\/static\/dam\/jcr:585c207e-d5d4-4587-945f-5758822d2e5c","latitude":47.09584,"longitude":17.918694,"address":{"address1":"Budapest \u00FAt 20-28.","address2":null,"address3":null,"address4":null,"city":"Veszpr\u00E9m","state":null,"postalCode":"8200"}},{"externalCode":"1139","uri":"\/cinemas\/campona","name":"Campona - Budapest","filename":"\/static\/dam\/jcr:34206ea0-2ca6-43d9-9da4-d8edaeb2c124","latitude":47.406853,"longitude":19.016766,"address":{"address1":"Nagyt\u00E9t\u00E9nyi \u00FAt 37-43.","address2":null,"address3":null,"address4":null,"city":"Budapest","state":null,"postalCode":"1222"}},{"externalCode":"1127","uri":"\/cinemas\/debrecen","name":"Debrecen","filename":"\/static\/dam\/jcr:76334654-9599-4b59-9a5b-3234d14c28db","latitude":47.534958,"longitude":21.62516,"address":{"address1":"P\u00E9terfia utca 18.","address2":null,"address3":null,"address4":null,"city":"Debrecen","state":null,"postalCode":"4026"}},{"externalCode":"1141","uri":"\/cinemas\/dunaplaza","name":"Duna Pl\u00E1za - Budapest","filename":"\/static\/dam\/jcr:15f91548-551d-4eac-b40c-c426dc953b98","latitude":47.549046,"longitude":19.07294,"address":{"address1":"V\u00E1ci \u00FAt 178.","address2":null,"address3":null,"address4":null,"city":"Budapest","state":null,"postalCode":"1138"}},{"externalCode":"1125","uri":"\/cinemas\/gyor","name":"Gy\u0151r","filename":"\/static\/dam\/jcr:3af85bf8-2121-4119-9f99-bf1ae1c3c78b","latitude":47.669083,"longitude":17.646603,"address":{"address1":"Vasv\u00E1ri P\u00E1l utca 1.","address2":null,"address3":null,"address4":null,"city":"Gy\u0151r","state":null,"postalCode":"9024"}},{"externalCode":"1144","uri":"\/cinemas\/mammut","name":"Mammut I-II. - Budapest","filename":"\/static\/dam\/jcr:a3cef5c0-9415-489e-93a2-ce36a3b5ff47","latitude":47.508392,"longitude":19.025301,"address":{"address1":"L\u00F6v\u0151h\u00E1z utca 2-6.","address2":null,"address3":null,"address4":null,"city":"Budapest","state":null,"postalCode":"1024"}},{"externalCode":"1129","uri":"\/cinemas\/miskolc","name":"Miskolc","filename":"\/static\/dam\/jcr:5fd27800-05de-4b08-a653-1058416530e4","latitude":48.106426,"longitude":20.788658,"address":{"address1":"Szentp\u00E1li utca 2-4.","address2":null,"address3":null,"address4":null,"city":"Miskolc","state":null,"postalCode":"3525"}},{"externalCode":"1143","uri":"\/cinemas\/nyiregyhaza","name":"Ny\u00EDregyh\u00E1za","filename":"\/static\/dam\/jcr:ee0b33e7-18f9-4bf1-a5a0-f612d58c3d3f","latitude":47.954628,"longitude":21.732037,"address":{"address1":"Szegf\u0171 utca 75.","address2":null,"address3":null,"address4":null,"city":"Ny\u00EDregyh\u00E1za","state":null,"postalCode":"4400"}},{"externalCode":"1128","uri":"\/cinemas\/pecs","name":"P\u00E9cs","filename":"\/static\/dam\/jcr:4f389fee-7da7-477d-afa0-9f75acc703d1","latitude":46.04972,"longitude":18.210224,"address":{"address1":"Megyeri \u00FAt 76.","address2":null,"address3":null,"address4":null,"city":"P\u00E9cs","state":null,"postalCode":"7632"}},{"externalCode":"1134","uri":"\/cinemas\/savaria","name":"Savaria - Szombathely","filename":"\/static\/dam\/jcr:a271ab4c-b4bf-4fe7-9592-6fe4599b9cc2","latitude":47.222134,"longitude":16.617025,"address":{"address1":"K\u00F6rmendi \u00FAt 52-54.","address2":null,"address3":null,"address4":null,"city":"Szombathely","state":null,"postalCode":"9700"}},{"externalCode":"1136","uri":"\/cinemas\/sopron","name":"Sopron","filename":"\/static\/dam\/jcr:87d43842-9d99-4c47-8192-a374d702a503","latitude":47.697773,"longitude":16.579487,"address":{"address1":"Lackner Krist\u00F3f utca 35.","address2":null,"address3":null,"address4":null,"city":"Sopron","state":null,"postalCode":"9400"}},{"externalCode":"1126","uri":"\/cinemas\/szeged","name":"Szeged","filename":"\/static\/dam\/jcr:2402ba03-9fcc-4c5a-bf48-66ad6b37b312","latitude":46.266132,"longitude":20.128738,"address":{"address1":"Kossuth Lajos sug\u00E1r\u00FAt 119.","address2":null,"address3":null,"address4":null,"city":"Szeged","state":null,"postalCode":"6724"}},{"externalCode":"1130","uri":"\/cinemas\/szolnok","name":"Szolnok","filename":"\/static\/dam\/jcr:a3af9596-3648-40ca-9791-e931289f178e","latitude":47.177353,"longitude":20.190777,"address":{"address1":"Ady Endre utca 28\/a","address2":null,"address3":null,"address4":null,"city":"Szolnok","state":null,"postalCode":"5000"}},{"externalCode":"1137","uri":"\/cinemas\/westend","name":"Westend - Budapest","filename":"\/static\/dam\/jcr:04ae3137-3724-4ba9-88c8-041e7232d1a6","latitude":47.513313,"longitude":19.058773,"address":{"address1":"V\u00E1ci \u00FAt 1-3.","address2":null,"address3":null,"address4":null,"city":"Budapest","state":null,"postalCode":"1062"}},{"externalCode":"1135","uri":"\/cinemas\/zala","name":"Zalaegerszeg","filename":"\/static\/dam\/jcr:f24a3181-2846-48cb-b8da-b93e67463441","latitude":46.847446,"longitude":16.852085,"address":{"address1":"Stadion utca 5.","address2":null,"address3":null,"address4":null,"city":"Zalaegerszeg","state":"8900","postalCode":"06 80 800 800"}}]